[{"id":1,"name":"横店电影城(庆丰店)","phone":13498476301,"province":"广东","city":"广州","counties":"白云区","site":"白云区庆丰广场路财智广场2楼","lng":2},{"id":2,"name":"尚影影院","phone":13745454545,"province":"广东","city":"广州","counties":"白云区","site":"白云区石夏路288号金铂广场7楼","lng":2},{"id":3,"name":"烽禾影城(祈福新邨店)","phone":13409989898,"province":"广东","city":"广州","counties":"番禺区","site":"番禺区钟屏路钟福广场3层（祈福新村祈福医院旁）","lng":2},{"id":4,"name":"沙湾3D数字电影院","phone":13465102832,"province":"广东","city":"广州","counties":"番禺区","site":"番禺区沙湾镇大巷涌路沙湾文化中心2楼（沁芳园对面）","lng":2},{"id":5,"name":"大地影院(奥体高德美居店)","phone":13454729283,"province":"广东","city":"广州","counties":"天河区","site":"白云区庆丰广场路天河区奥体南路12号高德美居家居馆3楼（近天河百货）财智广场2楼","lng":2},{"id":6,"name":"金逸国际影城(维家思店)","phone":13483743433,"province":"广东","city":"广州","counties":"天河区","site":"天河区黄埔大道西188号维家思广场3楼（富力盈隆广场对面）","lng":2},{"id":7,"name":"FUN范影城(喜洋时代东圃店)","phone":13418226112,"province":"广东","city":"广州","counties":"天河区","site":"天河区东圃大马路4号四季时尚荟A栋1楼（近东圃购物中心）","lng":2},{"id":8,"name":"万达影院","phone":13498746534,"province":"广东","city":"广州","counties":"天河区","site":"天河区长湴北街34号3楼","lng":2}]